[
  {
    "id": 1,
    "name": "Aly",
    "homeAddress": {
      "latitude": 51.51189,
      "longitude": -0.05947
    },
    "favouriteDrink": "IPA"
  },
  {
    "id": 2,
    "name": "Andy",
    "homeAddress": {
      "latitude": 51.5542,
      "longitude": -0.1065
    },
    "favouriteDrink": "Pale Ale"
  },
  {
    "id": 3,
    "name": "Euan",
    "homeAddress": {
      "latitude": 51.50697,
      "longitude": -0.09251
    },
    "favouriteDrink": "IPA"
  },
  {
    "id": 4,
    "name": "Ben",
    "homeAddress": {
      "latitude": 51.5449,
      "longitude": -0.087
    },
    "favouriteDrink": "Pale Ale"
  },
  {
    "id": 5,
    "name": "Andrew",
    "homeAddress": {
      "latitude": 51.5342,
      "longitude": -0.1034
    },
    "favouriteDrink": "IPA"
  },

  {
    "id": 6,
    "name": "Afyq",
    "homeAddress": {
      "latitude": 51.5569,
      "longitude": -0.0868
    },
    "favouriteDrink": "Cider"
  },
  {
    "id": 7,
    "name": "Natasha",
    "homeAddress": {
      "latitude": 51.5305,
      "longitude": -0.0847
    },
    "favouriteDrink": "Pale Ale"
  }
]
